<kml>
    <Document>
        <Style id="z1">
            <IconStyle>
                <Icon>
                    <href>http://www.google.com/intl/en_us/mapfiles/ms/micons/blue-dot.png</href>
                </Icon>
            </IconStyle>
        </Style>
        <Style id="yellowLineGreenPoly">
            <LineStyle>
                <color>7f00ffff</color>
                <width>4</width>
            </LineStyle>
        </Style>        
        <Placemark>
            <name>Home</name>
            <styleUrl>#z1</styleUrl>
            <Point>
                <coordinates>-118.2947,34.0652</coordinates>
            </Point>
        </Placemark>
        <Placemark>
            <name>THH</name>
            <styleUrl>#z1</styleUrl>
            <Point>
                <coordinates>-118.2846,34.0220</coordinates>
            </Point>
        </Placemark>
        <Placemark>
            <name>RTH</name>
            <styleUrl>#z1</styleUrl>
            <Point>
                <coordinates>-118.2864,34.0201</coordinates>
            </Point>
        </Placemark>
        <Placemark>
            <name>VKC</name>
            <styleUrl>#z1</styleUrl>
            <Point>
                <coordinates>-118.2845,34.0216</coordinates>
            </Point>
        </Placemark>
        <Placemark>
            <name>SGM</name>
            <styleUrl>#z1</styleUrl>
            <Point>
                <coordinates>-118.2891,34.0210</coordinates>
            </Point>
        </Placemark>
        <Placemark>
            <name>Figue_Jeff</name>
            <styleUrl>#z1</styleUrl>
            <Point>
                <coordinates>-118.2803,34.0218</coordinates>
            </Point>
        </Placemark>
        <Placemark>
            <name>Jeff_Vermont</name>
            <styleUrl>#z1</styleUrl>
            <Point>
                <coordinates>-118.2913,34.0252</coordinates>
            </Point>
        </Placemark>
        <Placemark>
            <name>Vermont_Expo</name>
            <styleUrl>#z1</styleUrl>
            <Point>
                <coordinates>-118.2912,34.0184</coordinates>
            </Point>
        </Placemark>
        <Placemark>
            <name>Expo_Figue</name>
            <styleUrl>#z1</styleUrl>
            <Point>
                <coordinates>-118.2839,34.0180</coordinates>
            </Point>
        </Placemark>                
    </Document>
</kml>